{"type":"FeatureCollection","features":[{"id":1,"type":"Feature","geometry":{"type":"Point","coordinates":[4.893349,52.376064]},"properties":{"Naam":"Nieuwezijds Kolk","Modaliteit":"Tram","Lijn":"2 | 11 | 12 | 13 | 17","Lijn_select":"02|11|12|13|17","RADIUS":5,"Label":"2 | 11 | 12 | 13 | 17 - Nieuwezijds Kolk"}},{"id":2,"type":"Feature","geometry":{"type":"Point","coordinates":[4.853122,52.358377]},"properties":{"Naam":"Surinameplein","Modaliteit":"Tram","Lijn":"1 | 11 | 17","Lijn_select":"01|11|17","RADIUS":5,"Label":"1 | 11 | 17 - Surinameplein"}},{"id":3,"type":"Feature","geometry":{"type":"Point","coordinates":[4.82733,52.357809]},"properties":{"Naam":"Johan Huizingalaan","Modaliteit":"Tram","Lijn":"1 | 17","Lijn_select":"01|17","RADIUS":5,"Label":"1 | 17 - Johan Huizingalaan"}},{"id":4,"type":"Feature","geometry":{"type":"Point","coordinates":[4.889295,52.369254]},"properties":{"Naam":"Spui","Modaliteit":"Tram","Lijn":"2 | 11 | 12","Lijn_select":"02|11|12","RADIUS":5,"Label":"2 | 11 | 12 - Spui"}},{"id":5,"type":"Feature","geometry":{"type":"Point","coordinates":[4.884471,52.365017]},"properties":{"Naam":"Prinsengracht","Modaliteit":"Tram","Lijn":"2 | 11 | 12","Lijn_select":"02|11|12","RADIUS":5,"Label":"2 | 11 | 12 - Prinsengracht"}},{"id":6,"type":"Feature","geometry":{"type":"Point","coordinates":[4.886451,52.365956]},"properties":{"Naam":"Keizergracht","Modaliteit":"Tram","Lijn":"2 | 11 | 12","Lijn_select":"02|11|12","RADIUS":5,"Label":"2 | 11 | 12 - Keizergracht"}},{"id":7,"type":"Feature","geometry":{"type":"Point","coordinates":[4.888961,52.366998]},"properties":{"Naam":"Koningsplein","Modaliteit":"Tram","Lijn":"2 | 11 | 12","Lijn_select":"02|11|12","RADIUS":5,"Label":"2 | 11 | 12 - Koningsplein"}},{"id":8,"type":"Feature","geometry":{"type":"Point","coordinates":[4.77478,52.353738]},"properties":{"Naam":"Matterhorn","Modaliteit":"Tram","Lijn":1,"Lijn_select":"01","RADIUS":5,"Label":"1 - Matterhorn"}},{"id":9,"type":"Feature","geometry":{"type":"Point","coordinates":[4.776851,52.35291]},"properties":{"Naam":"Pilatus","Modaliteit":"Tram","Lijn":1,"Lijn_select":"01","RADIUS":5,"Label":"1 - Pilatus"}},{"id":10,"type":"Feature","geometry":{"type":"Point","coordinates":[4.783292,52.350331]},"properties":{"Naam":"Inarisstraat","Modaliteit":"Tram","Lijn":1,"Lijn_select":"01","RADIUS":5,"Label":"1 - Inarisstraat"}},{"id":11,"type":"Feature","geometry":{"type":"Point","coordinates":[4.794752,52.350978]},"properties":{"Naam":"Baden Powellweg","Modaliteit":"Tram","Lijn":1,"Lijn_select":"01","RADIUS":5,"Label":"1 - Baden Powellweg"}},{"id":12,"type":"Feature","geometry":{"type":"Point","coordinates":[4.802261,52.352498]},"properties":{"Naam":"Hoekenes","Modaliteit":"Tram","Lijn":1,"Lijn_select":"01","RADIUS":5,"Label":"1 - Hoekenes"}},{"id":13,"type":"Feature","geometry":{"type":"Point","coordinates":[4.808848,52.35389]},"properties":{"Naam":"Louis Davidsstraat","Modaliteit":"Tram","Lijn":1,"Lijn_select":"01","RADIUS":5,"Label":"1 - Louis Davidsstraat"}},{"id":14,"type":"Feature","geometry":{"type":"Point","coordinates":[4.875292,52.362745]},"properties":{"Naam":"Eerste Constantijn Huygensstraat \/ Overtoom","Modaliteit":"Tram","Lijn":"1 | 3 | 11","Lijn_select":"01|03|11","RADIUS":5,"Label":"1 | 3 | 11 - Eerste Constantijn Huygensstraat \/ Overtoom"}},{"id":15,"type":"Feature","geometry":{"type":"Point","coordinates":[4.860101,52.358961]},"properties":{"Naam":"Rhijnvis Feithstraat","Modaliteit":"Tram","Lijn":"1 | 11","Lijn_select":"01|11","RADIUS":5,"Label":"1 | 11 - Rhijnvis Feithstraat"}},{"id":16,"type":"Feature","geometry":{"type":"Point","coordinates":[4.940195,52.347751]},"properties":{"Naam":"Kruislaan","Modaliteit":"Tram","Lijn":19,"Lijn_select":19,"RADIUS":5,"Label":"19 - Kruislaan"}},{"id":17,"type":"Feature","geometry":{"type":"Point","coordinates":[4.947654,52.343067]},"properties":{"Naam":"Brinkstraat","Modaliteit":"Tram","Lijn":19,"Lijn_select":19,"RADIUS":5,"Label":"19 - Brinkstraat"}},{"id":18,"type":"Feature","geometry":{"type":"Point","coordinates":[4.954538,52.339603]},"properties":{"Naam":"Arent Krijtstraat","Modaliteit":"Tram","Lijn":19,"Lijn_select":19,"RADIUS":5,"Label":"19 - Arent Krijtstraat"}},{"id":19,"type":"Feature","geometry":{"type":"Point","coordinates":[4.9612659,52.3382915]},"properties":{"Naam":"Diemerbrug","Modaliteit":"Tram","Lijn":19,"Lijn_select":19,"RADIUS":5,"Label":"19 - Diemerbrug"}},{"id":21,"type":"Feature","geometry":{"type":"Point","coordinates":[4.969582,52.336756]},"properties":{"Naam":"Diemen Sniep","Modaliteit":"Tram","Lijn":19,"Lijn_select":19,"RADIUS":5,"Label":"19 - Diemen Sniep"}},{"id":22,"type":"Feature","geometry":{"type":"Point","coordinates":[4.929373,52.361012]},"properties":{"Naam":"Dapperstraat","Modaliteit":"Tram","Lijn":"1 | 3","Lijn_select":"01|03","RADIUS":5,"Label":"1 | 3 - Dapperstraat"}},{"id":23,"type":"Feature","geometry":{"type":"Point","coordinates":[4.810142,52.356394]},"properties":{"Naam":"Meer en Vaart","Modaliteit":"Tram","Lijn":"1 | 17","Lijn_select":"01|17","RADIUS":5,"Label":"1 | 17 - Meer en Vaart"}},{"id":24,"type":"Feature","geometry":{"type":"Point","coordinates":[4.840037,52.35795]},"properties":{"Naam":"Derkinderenstraat","Modaliteit":"Tram","Lijn":"1 | 17","Lijn_select":"01|17","RADIUS":5,"Label":"1 | 17 - Derkinderenstraat"}},{"id":25,"type":"Feature","geometry":{"type":"Point","coordinates":[4.853284,52.361465]},"properties":{"Naam":"Corantijnstraat","Modaliteit":"Tram","Lijn":17,"Lijn_select":17,"RADIUS":5,"Label":"17 - Corantijnstraat"}},{"id":26,"type":"Feature","geometry":{"type":"Point","coordinates":[4.8534415,52.364238]},"properties":{"Naam":"Postjesweg \/ Hoofdweg","Modaliteit":"Tram","Lijn":"7 - 17","Lijn_select":"07|17","RADIUS":5,"Label":"7 - 17 - Postjesweg \/ Hoofdweg"}},{"id":27,"type":"Feature","geometry":{"type":"Point","coordinates":[4.867549,52.365968]},"properties":{"Naam":"Ten Katestraat","Modaliteit":"Tram","Lijn":"7 | 17","Lijn_select":"07|17","RADIUS":5,"Label":"7 | 17 - Ten Katestraat"}},{"id":28,"type":"Feature","geometry":{"type":"Point","coordinates":[4.872169,52.367239]},"properties":{"Naam":"Kinkerstraat \/ Bilderdijkstraat","Modaliteit":"Tram","Lijn":"3 | 7 | 17","Lijn_select":"03|07|17","RADIUS":5,"Label":"3 | 7 | 17 - Kinkerstraat \/ Bilderdijkstraat"}},{"id":29,"type":"Feature","geometry":{"type":"Point","coordinates":[4.882353,52.363768]},"properties":{"Naam":"Leidseplein","Modaliteit":"Tram","Lijn":"1 | 2 | 5 | 7 | 11 | 12 | 19","Lijn_select":"01|02|05|07|11|12|19","RADIUS":5,"Label":"1 | 2 | 5 | 7 | 11 | 12 | 19 - Leidseplein"}},{"id":30,"type":"Feature","geometry":{"type":"Point","coordinates":[4.788602,52.349769]},"properties":{"Naam":"Ecuplein","Modaliteit":"Tram","Lijn":1,"Lijn_select":"01","RADIUS":5,"Label":"1 - Ecuplein"}},{"id":31,"type":"Feature","geometry":{"type":"Point","coordinates":[4.86625,52.360447]},"properties":{"Naam":"J.P. Heijestraat","Modaliteit":"Tram","Lijn":"1 | 11","Lijn_select":"01|11","RADIUS":5,"Label":"1 | 11 - J.P. Heijestraat"}},{"id":32,"type":"Feature","geometry":{"type":"Point","coordinates":[4.86987,52.38423]},"properties":{"Naam":"Van Hallstraat","Modaliteit":"Tram","Lijn":5,"Lijn_select":"05","RADIUS":5,"Label":"5 - Van Hallstraat"}},{"id":33,"type":"Feature","geometry":{"type":"Point","coordinates":[4.881063,52.381491]},"properties":{"Naam":"Nieuwe Willemsstraat","Modaliteit":"Tram","Lijn":3,"Lijn_select":"03","RADIUS":5,"Label":"3 - Nieuwe Willemsstraat"}},{"id":34,"type":"Feature","geometry":{"type":"Point","coordinates":[4.937336,52.376736]},"properties":{"Naam":"Azartplein","Modaliteit":"Tram","Lijn":7,"Lijn_select":"07","RADIUS":5,"Label":"7 - Azartplein"}},{"id":35,"type":"Feature","geometry":{"type":"Point","coordinates":[4.821464,52.381318]},"properties":{"Naam":"Plein `40-`45","Modaliteit":"Tram","Lijn":7,"Lijn_select":"07","RADIUS":5,"Label":"7 - Plein `40-`45"}},{"id":36,"type":"Feature","geometry":{"type":"Point","coordinates":[4.875046,52.384355]},"properties":{"Naam":"Van Limburg Stirumstraat","Modaliteit":"Tram","Lijn":5,"Lijn_select":"05","RADIUS":5,"Label":"5 - Van Limburg Stirumstraat"}},{"id":37,"type":"Feature","geometry":{"type":"Point","coordinates":[4.926464,52.368266]},"properties":{"Naam":"Eerste Coehoornstraat","Modaliteit":"Tram","Lijn":7,"Lijn_select":"07","RADIUS":5,"Label":"7 - Eerste Coehoornstraat"}},{"id":38,"type":"Feature","geometry":{"type":"Point","coordinates":[4.93846,52.373499]},"properties":{"Naam":"C. van Eesterenlaan","Modaliteit":"Tram","Lijn":7,"Lijn_select":"07","RADIUS":5,"Label":"7 - C. van Eesterenlaan"}},{"id":39,"type":"Feature","geometry":{"type":"Point","coordinates":[4.914325,52.36248]},"properties":{"Naam":"K. `s-Gravesandestraat","Modaliteit":"Tram","Lijn":"1 | 7 | 19","Lijn_select":"01|07|19","RADIUS":5,"Label":"1 | 7 | 19 - K. `s-Gravesandestraat"}},{"id":40,"type":"Feature","geometry":{"type":"Point","coordinates":[4.890948,52.359625]},"properties":{"Naam":"Vijzelgracht \/Weteringcircuit","Modaliteit":"Tram","Lijn":"1 | 7 | 19 | 24 | 52","Lijn_select":"01|07|19|24|52","RADIUS":5,"Label":"1 | 7 | 19 | 24 | 52 - Vijzelgracht \/Weteringcircuit"}},{"id":41,"type":"Feature","geometry":{"type":"Point","coordinates":[4.887262,52.360882]},"properties":{"Naam":"Spiegelgracht","Modaliteit":"Tram","Lijn":"1 | 7 | 19","Lijn_select":"01|07|19","RADIUS":5,"Label":"1 | 7 | 19 - Spiegelgracht"}},{"id":42,"type":"Feature","geometry":{"type":"Point","coordinates":[4.883593,52.385037]},"properties":{"Naam":"Haarlemmerplein","Modaliteit":"Tram","Lijn":3,"Lijn_select":"03","RADIUS":5,"Label":"3 - Haarlemmerplein"}},{"id":43,"type":"Feature","geometry":{"type":"Point","coordinates":[4.877053,52.383178]},"properties":{"Naam":"De Wittenkade","Modaliteit":"Tram","Lijn":5,"Lijn_select":"05","RADIUS":5,"Label":"5 - De Wittenkade"}},{"id":44,"type":"Feature","geometry":{"type":"Point","coordinates":[4.879194,52.381133]},"properties":{"Naam":"Nassaukade","Modaliteit":"Tram","Lijn":5,"Lijn_select":"05","RADIUS":5,"Label":"5 - Nassaukade"}},{"id":45,"type":"Feature","geometry":{"type":"Point","coordinates":[4.918934,52.363599]},"properties":{"Naam":"Alexanderplein","Modaliteit":"Tram","Lijn":"7 | 14 | 19","Lijn_select":"07|14|19","RADIUS":5,"Label":"7 | 14 | 19 - Alexanderplein"}},{"id":46,"type":"Feature","geometry":{"type":"Point","coordinates":[4.924564,52.366765]},"properties":{"Naam":"Hoogte Kadijk","Modaliteit":"Tram","Lijn":7,"Lijn_select":"07","RADIUS":5,"Label":"7 - Hoogte Kadijk"}},{"id":47,"type":"Feature","geometry":{"type":"Point","coordinates":[4.929696,52.370251]},"properties":{"Naam":"Eerste Leeghwaterstraat","Modaliteit":"Tram","Lijn":7,"Lijn_select":"07","RADIUS":5,"Label":"7 - Eerste Leeghwaterstraat"}},{"id":48,"type":"Feature","geometry":{"type":"Point","coordinates":[4.934366,52.372892]},"properties":{"Naam":"Rietlandpark","Modaliteit":"Tram","Lijn":"7 | 26","Lijn_select":"07|26","RADIUS":5,"Label":"7 | 26 - Rietlandpark"}},{"id":49,"type":"Feature","geometry":{"type":"Point","coordinates":[4.86393,52.37053]},"properties":{"Naam":"Willem de Zwijerlaan","Modaliteit":"Tram","Lijn":"13 | 19","Lijn_select":"13|19","RADIUS":5,"Label":"13 | 19 - Willem de Zwijerlaan"}},{"id":51,"type":"Feature","geometry":{"type":"Point","coordinates":[4.891112,52.352783]},"properties":{"Naam":"De Pijp","Modaliteit":"Tram","Lijn":"3 | 12 | 24 | 52","Lijn_select":"03|12|24|52","RADIUS":5,"Label":"3 | 12 | 24 | 52 - De Pijp"}},{"id":52,"type":"Feature","geometry":{"type":"Point","coordinates":[4.851314,52.382567]},"properties":{"Naam":"Wiltzanghlaan","Modaliteit":"Tram","Lijn":19,"Lijn_select":19,"RADIUS":5,"Label":"19 - Wiltzanghlaan"}},{"id":53,"type":"Feature","geometry":{"type":"Point","coordinates":[4.846421,52.385881]},"properties":{"Naam":"Molenwerf","Modaliteit":"Tram","Lijn":19,"Lijn_select":19,"RADIUS":5,"Label":"19 - Molenwerf"}},{"id":54,"type":"Feature","geometry":{"type":"Point","coordinates":[4.891167,52.347338]},"properties":{"Naam":"Scheldestraat","Modaliteit":"Tram","Lijn":12,"Lijn_select":12,"RADIUS":5,"Label":"12 - Scheldestraat"}},{"id":55,"type":"Feature","geometry":{"type":"Point","coordinates":[4.891992,52.340211]},"properties":{"Naam":"Europaplein","Modaliteit":"Tram","Lijn":"4 | 52","Lijn_select":"04|52","RADIUS":5,"Label":"4 | 52 - Europaplein"}},{"id":56,"type":"Feature","geometry":{"type":"Point","coordinates":[4.900816,52.344522]},"properties":{"Naam":"Waalstraat","Modaliteit":"Tram","Lijn":4,"Lijn_select":"04","RADIUS":5,"Label":"4 - Waalstraat"}},{"id":57,"type":"Feature","geometry":{"type":"Point","coordinates":[4.896595,52.342992]},"properties":{"Naam":"Maasstraat","Modaliteit":"Tram","Lijn":4,"Lijn_select":"04","RADIUS":5,"Label":"4 - Maasstraat"}},{"id":58,"type":"Feature","geometry":{"type":"Point","coordinates":[4.893045,52.341903]},"properties":{"Naam":"Dintelstraat","Modaliteit":"Tram","Lijn":4,"Lijn_select":"04","RADIUS":5,"Label":"4 - Dintelstraat"}},{"id":59,"type":"Feature","geometry":{"type":"Point","coordinates":[4.867284,52.301248]},"properties":{"Naam":"Amstelveen Stadshart","Modaliteit":"Tram","Lijn":"5 | 6","Lijn_select":"05|06","RADIUS":5,"Label":"5 | 6 - Amstelveen Stadshart"}},{"id":60,"type":"Feature","geometry":{"type":"Point","coordinates":[4.855365,52.370913]},"properties":{"Naam":"Marco Polostraat","Modaliteit":"Tram","Lijn":13,"Lijn_select":13,"RADIUS":5,"Label":"13 - Marco Polostraat"}},{"id":61,"type":"Feature","geometry":{"type":"Point","coordinates":[4.858565,52.374683]},"properties":{"Naam":"Jan van Galenstraat","Modaliteit":"Tram","Lijn":19,"Lijn_select":19,"RADIUS":5,"Label":"19 - Jan van Galenstraat"}},{"id":62,"type":"Feature","geometry":{"type":"Point","coordinates":[4.875889,52.372173]},"properties":{"Naam":"Rozengracht \/ Marnixstraat","Modaliteit":"Tram","Lijn":"5 | 13 | 17 | 19","Lijn_select":"05|13|17|19","RADIUS":5,"Label":"5 | 13 | 17 | 19 - Rozengracht \/ Marnixstraat"}},{"id":63,"type":"Feature","geometry":{"type":"Point","coordinates":[4.88236,52.352851]},"properties":{"Naam":"Roelof Hartplein","Modaliteit":"Tram","Lijn":"3 | 5 | 12 | 24","Lijn_select":"03|05|12|24","RADIUS":5,"Label":"3 | 5 | 12 | 24 - Roelof Hartplein"}},{"id":64,"type":"Feature","geometry":{"type":"Point","coordinates":[4.854874,52.380556]},"properties":{"Naam":"Bos en Lommerweg","Modaliteit":"Tram","Lijn":19,"Lijn_select":19,"RADIUS":5,"Label":"19 - Bos en Lommerweg"}},{"id":65,"type":"Feature","geometry":{"type":"Point","coordinates":[4.895131,52.346932]},"properties":{"Naam":"Maasstraat","Modaliteit":"Tram","Lijn":12,"Lijn_select":12,"RADIUS":5,"Label":"12 - Maasstraat"}},{"id":66,"type":"Feature","geometry":{"type":"Point","coordinates":[4.899977,52.34669]},"properties":{"Naam":"Waalstraat","Modaliteit":"Tram","Lijn":12,"Lijn_select":12,"RADIUS":5,"Label":"12 - Waalstraat"}},{"id":67,"type":"Feature","geometry":{"type":"Point","coordinates":[4.891548,52.35019]},"properties":{"Naam":"Cornelis Troostplein","Modaliteit":"Tram","Lijn":12,"Lijn_select":12,"RADIUS":5,"Label":"12 - Cornelis Troostplein"}},{"id":68,"type":"Feature","geometry":{"type":"Point","coordinates":[4.890517,52.373154]},"properties":{"Naam":"Dam","Modaliteit":"Tram","Lijn":"2 | 11 | 12 | 13 | 17","Lijn_select":"02|11|12|13|17","RADIUS":5,"Label":"2 | 11 | 12 | 13 | 17 - Dam"}},{"id":69,"type":"Feature","geometry":{"type":"Point","coordinates":[4.812453,52.376422]},"properties":{"Naam":"Burg. Van Leeuwenlaan","Modaliteit":"Tram","Lijn":13,"Lijn_select":13,"RADIUS":5,"Label":"13 - Burg. Van Leeuwenlaan"}},{"id":70,"type":"Feature","geometry":{"type":"Point","coordinates":[4.832248,52.379714]},"properties":{"Naam":"Burg. Fockstraat","Modaliteit":"Tram","Lijn":7,"Lijn_select":"07","RADIUS":5,"Label":"7 - Burg. Fockstraat"}},{"id":71,"type":"Feature","geometry":{"type":"Point","coordinates":[4.826829,52.380564]},"properties":{"Naam":"Burg.Eliasstraat","Modaliteit":"Tram","Lijn":7,"Lijn_select":"07","RADIUS":5,"Label":"7 - Burg.Eliasstraat"}},{"id":72,"type":"Feature","geometry":{"type":"Point","coordinates":[4.827318,52.374404]},"properties":{"Naam":"Burg. Rendorpstraat","Modaliteit":"Tram","Lijn":13,"Lijn_select":13,"RADIUS":5,"Label":"13 - Burg. Rendorpstraat"}},{"id":73,"type":"Feature","geometry":{"type":"Point","coordinates":[4.844122,52.369427]},"properties":{"Naam":"Admiraal Helfrichstraat","Modaliteit":"Tram","Lijn":13,"Lijn_select":13,"RADIUS":5,"Label":"13 - Admiraal Helfrichstraat"}},{"id":74,"type":"Feature","geometry":{"type":"Point","coordinates":[4.8469921,52.3762574]},"properties":{"Naam":"Erasmusgracht","Modaliteit":"Tram","Lijn":7,"Lijn_select":"07","RADIUS":5,"Label":"7 - Erasmusgracht"}},{"id":75,"type":"Feature","geometry":{"type":"Point","coordinates":[4.806468,52.376938]},"properties":{"Naam":"Dr. H. Colijnstraat","Modaliteit":"Tram","Lijn":13,"Lijn_select":13,"RADIUS":5,"Label":"13 - Dr. H. Colijnstraat"}},{"id":76,"type":"Feature","geometry":{"type":"Point","coordinates":[4.803274,52.377254]},"properties":{"Naam":"Lambertus Zijlplein","Modaliteit":"Tram","Lijn":13,"Lijn_select":13,"RADIUS":5,"Label":"13 - Lambertus Zijlplein"}},{"id":77,"type":"Feature","geometry":{"type":"Point","coordinates":[4.850266,52.370032]},"properties":{"Naam":"Mercatorplein","Modaliteit":"Tram","Lijn":"7 | 13","Lijn_select":"07|13","RADIUS":5,"Label":"7 | 13 - Mercatorplein"}},{"id":78,"type":"Feature","geometry":{"type":"Point","coordinates":[4.838209,52.369641]},"properties":{"Naam":"Jan Voermanstraat","Modaliteit":"Tram","Lijn":13,"Lijn_select":13,"RADIUS":5,"Label":"13 - Jan Voermanstraat"}},{"id":79,"type":"Feature","geometry":{"type":"Point","coordinates":[4.818878,52.372842]},"properties":{"Naam":"Sloterpark","Modaliteit":"Tram","Lijn":7,"Lijn_select":"07","RADIUS":5,"Label":"7 - Sloterpark"}},{"id":80,"type":"Feature","geometry":{"type":"Point","coordinates":[4.896578,52.366237]},"properties":{"Naam":"Rembrandtplein","Modaliteit":"Tram","Lijn":"4 | 14","Lijn_select":"04|14","RADIUS":5,"Label":"4 | 14 - Rembrandtplein"}},{"id":81,"type":"Feature","geometry":{"type":"Point","coordinates":[4.911175,52.366621]},"properties":{"Naam":"Artis","Modaliteit":"Tram","Lijn":14,"Lijn_select":14,"RADIUS":5,"Label":"14 - Artis"}},{"id":82,"type":"Feature","geometry":{"type":"Point","coordinates":[4.915418,52.365155]},"properties":{"Naam":"Plantage Lepellaan","Modaliteit":"Tram","Lijn":14,"Lijn_select":14,"RADIUS":5,"Label":"14 - Plantage Lepellaan"}},{"id":83,"type":"Feature","geometry":{"type":"Point","coordinates":[4.819025,52.375688]},"properties":{"Naam":"Burg. R\u00f6ellstraat \/ Slotermerlaan","Modaliteit":"Tram","Lijn":"7 | 13","Lijn_select":"07|13","RADIUS":5,"Label":"7 | 13 - Burg. R\u00f6ellstraat \/ Slotermerlaan"}},{"id":84,"type":"Feature","geometry":{"type":"Point","coordinates":[4.951403,52.365165]},"properties":{"Naam":"Flevopark","Modaliteit":"Tram","Lijn":"3 | 14","Lijn_select":"03|14","RADIUS":5,"Label":"3 | 14 - Flevopark"}},{"id":85,"type":"Feature","geometry":{"type":"Point","coordinates":[4.905703,52.367815]},"properties":{"Naam":"Mr. Visserplein","Modaliteit":"Tram","Lijn":14,"Lijn_select":14,"RADIUS":5,"Label":"14 - Mr. Visserplein"}},{"id":86,"type":"Feature","geometry":{"type":"Point","coordinates":[4.923985,52.361912]},"properties":{"Naam":"Eerste Van Swindenstraat","Modaliteit":"Tram","Lijn":19,"Lijn_select":19,"RADIUS":5,"Label":"19 - Eerste Van Swindenstraat"}},{"id":87,"type":"Feature","geometry":{"type":"Point","coordinates":[4.9253,52.360011]},"properties":{"Naam":"Linnaeusstraat \/ Wijttenbachstraat","Modaliteit":"Tram","Lijn":"1 | 3 | 19","Lijn_select":"01|03|19","RADIUS":5,"Label":"1 | 3 | 19 - Linnaeusstraat \/ Wijttenbachstraat"}},{"id":88,"type":"Feature","geometry":{"type":"Point","coordinates":[4.947757,52.364866]},"properties":{"Naam":"Insulindeweg","Modaliteit":"Tram","Lijn":"3 | 14","Lijn_select":"03|14","RADIUS":5,"Label":"3 | 14 - Insulindeweg"}},{"id":89,"type":"Feature","geometry":{"type":"Point","coordinates":[4.83811,52.371481]},"properties":{"Naam":"Jan Tooropstraat","Modaliteit":"Tram","Lijn":13,"Lijn_select":13,"RADIUS":5,"Label":"13 - Jan Tooropstraat"}},{"id":90,"type":"Feature","geometry":{"type":"Point","coordinates":[4.845753,52.37787]},"properties":{"Naam":"Bos en Lommerplein","Modaliteit":"Tram","Lijn":7,"Lijn_select":"07|14","RADIUS":5,"Label":"7 - Bos en Lommerplein"}},{"id":91,"type":"Feature","geometry":{"type":"Point","coordinates":[4.943728,52.362206]},"properties":{"Naam":"Soembawastraat","Modaliteit":"Tram","Lijn":"3 | 14","Lijn_select":"03|14","RADIUS":5,"Label":"3 | 14 - Soembawastraat"}},{"id":92,"type":"Feature","geometry":{"type":"Point","coordinates":[4.940099,52.36169]},"properties":{"Naam":"Molukkenstraat","Modaliteit":"Tram","Lijn":"3 | 14","Lijn_select":"03|14","RADIUS":5,"Label":"3 | 14 - Molukkenstraat"}},{"id":93,"type":"Feature","geometry":{"type":"Point","coordinates":[4.930968,52.353482]},"properties":{"Naam":"Hogeweg","Modaliteit":"Tram","Lijn":19,"Lijn_select":19,"RADIUS":5,"Label":"19 - Hogeweg"}},{"id":94,"type":"Feature","geometry":{"type":"Point","coordinates":[4.935169,52.350852]},"properties":{"Naam":"Hugo de Vrieslaan","Modaliteit":"Tram","Lijn":19,"Lijn_select":19,"RADIUS":5,"Label":"19 - Hugo de Vrieslaan"}},{"id":95,"type":"Feature","geometry":{"type":"Point","coordinates":[4.927677,52.365918]},"properties":{"Naam":"Pontanusstraat","Modaliteit":"Tram","Lijn":14,"Lijn_select":14,"RADIUS":5,"Label":"14 - Pontanusstraat"}},{"id":96,"type":"Feature","geometry":{"type":"Point","coordinates":[4.932681,52.365805]},"properties":{"Naam":"Zeeburgerdijk","Modaliteit":"Tram","Lijn":14,"Lijn_select":14,"RADIUS":5,"Label":"14 - Zeeburgerdijk"}},{"id":97,"type":"Feature","geometry":{"type":"Point","coordinates":[4.937672,52.36432]},"properties":{"Naam":"Javaplein","Modaliteit":"Tram","Lijn":14,"Lijn_select":14,"RADIUS":5,"Label":"14 - Javaplein"}},{"id":98,"type":"Feature","geometry":{"type":"Point","coordinates":[4.894056,52.373809]},"properties":{"Naam":"Dam","Modaliteit":"Tram","Lijn":"4 | 14","Lijn_select":"04|14","RADIUS":5,"Label":"4 | 14 - Dam"}},{"id":99,"type":"Feature","geometry":{"type":"Point","coordinates":[4.892383,52.369793]},"properties":{"Naam":"Rokin","Modaliteit":"Tram","Lijn":"4 | 14 | 52","Lijn_select":"04|14|52","RADIUS":5,"Label":"4 | 14 | 52 - Rokin"}},{"id":101,"type":"Feature","geometry":{"type":"Point","coordinates":[4.890706,52.357065]},"properties":{"Naam":"Marie Heinekenplein","Modaliteit":"Tram","Lijn":24,"Lijn_select":24,"RADIUS":5,"Label":"24 - Marie Heinekenplein"}},{"id":102,"type":"Feature","geometry":{"type":"Point","coordinates":[4.857702,52.341119]},"properties":{"Naam":"IJsbaanpad","Modaliteit":"Tram","Lijn":24,"Lijn_select":24,"RADIUS":5,"Label":"24 - IJsbaanpad"}},{"id":103,"type":"Feature","geometry":{"type":"Point","coordinates":[4.87973,52.35654]},"properties":{"Naam":"Museumplein","Modaliteit":"Tram","Lijn":"3 | 5 | 12","Lijn_select":"03|05|12","RADIUS":5,"Label":"3 | 5 | 12 - Museumplein"}},{"id":104,"type":"Feature","geometry":{"type":"Point","coordinates":[4.786916,52.355541]},"properties":{"Naam":"Dijkgraafplein","Modaliteit":"Tram","Lijn":17,"Lijn_select":17,"RADIUS":5,"Label":"17 - Dijkgraafplein"}},{"id":105,"type":"Feature","geometry":{"type":"Point","coordinates":[4.791589,52.356485]},"properties":{"Naam":"Baden Powellweg","Modaliteit":"Tram","Lijn":17,"Lijn_select":17,"RADIUS":5,"Label":"17 - Baden Powellweg"}},{"id":106,"type":"Feature","geometry":{"type":"Point","coordinates":[4.7991,52.357997]},"properties":{"Naam":"Hoekenes","Modaliteit":"Tram","Lijn":17,"Lijn_select":17,"RADIUS":5,"Label":"17 - Hoekenes"}},{"id":107,"type":"Feature","geometry":{"type":"Point","coordinates":[4.803208,52.359411]},"properties":{"Naam":"Osdorpplein","Modaliteit":"Tram","Lijn":17,"Lijn_select":17,"RADIUS":5,"Label":"17 - Osdorpplein"}},{"id":108,"type":"Feature","geometry":{"type":"Point","coordinates":[4.807562,52.359615]},"properties":{"Naam":"Ruimzicht","Modaliteit":"Tram","Lijn":17,"Lijn_select":17,"RADIUS":5,"Label":"17 - Ruimzicht"}},{"id":109,"type":"Feature","geometry":{"type":"Point","coordinates":[4.877957,52.3688]},"properties":{"Naam":"Elandsgracht","Modaliteit":"Tram","Lijn":"5 | 7 | 17 | 19","Lijn_select":"05|07|17|19","RADIUS":5,"Label":"5 | 7 | 17 | 19 - Elandsgracht"}},{"id":110,"type":"Feature","geometry":{"type":"Point","coordinates":[4.870338,52.370879]},"properties":{"Naam":"De Clercqstraat \/ Bilderdijkstraat","Modaliteit":"Tram","Lijn":"3 | 13 | 19","Lijn_select":"03|13|19","RADIUS":5,"Label":"3 | 13 | 19 - De Clercqstraat \/ Bilderdijkstraat"}},{"id":111,"type":"Feature","geometry":{"type":"Point","coordinates":[4.856601,52.351503]},"properties":{"Naam":"Amstelveenseweg","Modaliteit":"Tram","Lijn":2,"Lijn_select":"02","RADIUS":5,"Label":"2 - Amstelveenseweg"}},{"id":112,"type":"Feature","geometry":{"type":"Point","coordinates":[4.845334,52.351577]},"properties":{"Naam":"Westlandgracht","Modaliteit":"Tram","Lijn":2,"Lijn_select":"02","RADIUS":5,"Label":"2 - Westlandgracht"}},{"id":113,"type":"Feature","geometry":{"type":"Point","coordinates":[4.816064,52.346456]},"properties":{"Naam":"Laan van Vlaanderen","Modaliteit":"Tram","Lijn":2,"Lijn_select":"02","RADIUS":5,"Label":"2 - Laan van Vlaanderen"}},{"id":114,"type":"Feature","geometry":{"type":"Point","coordinates":[4.810925,52.346353]},"properties":{"Naam":"Kasterleepark","Modaliteit":"Tram","Lijn":2,"Lijn_select":"02","RADIUS":5,"Label":"2 - Kasterleepark"}},{"id":115,"type":"Feature","geometry":{"type":"Point","coordinates":[4.803959,52.344989]},"properties":{"Naam":"Oudenaardeplantsoen","Modaliteit":"Tram","Lijn":2,"Lijn_select":"02","RADIUS":5,"Label":"2 - Oudenaardeplantsoen"}},{"id":116,"type":"Feature","geometry":{"type":"Point","coordinates":[4.870705,52.356011]},"properties":{"Naam":"Cornelis Schuytstraat","Modaliteit":"Tram","Lijn":2,"Lijn_select":"02","RADIUS":5,"Label":"2 - Cornelis Schuytstraat"}},{"id":117,"type":"Feature","geometry":{"type":"Point","coordinates":[4.863509,52.353219]},"properties":{"Naam":"Valeriusplein","Modaliteit":"Tram","Lijn":2,"Lijn_select":"02","RADIUS":5,"Label":"2 - Valeriusplein"}},{"id":118,"type":"Feature","geometry":{"type":"Point","coordinates":[4.840882,52.351544]},"properties":{"Naam":"Delflandlaan","Modaliteit":"Tram","Lijn":2,"Lijn_select":"02","RADIUS":5,"Label":"2 - Delflandlaan"}},{"id":119,"type":"Feature","geometry":{"type":"Point","coordinates":[4.824631,52.346687]},"properties":{"Naam":"Louwesweg","Modaliteit":"Tram","Lijn":2,"Lijn_select":"02","RADIUS":5,"Label":"2 - Louwesweg"}},{"id":120,"type":"Feature","geometry":{"type":"Point","coordinates":[4.827482,52.349157]},"properties":{"Naam":"Johan Huizingalaan","Modaliteit":"Tram","Lijn":2,"Lijn_select":"02","RADIUS":5,"Label":"2 - Johan Huizingalaan"}},{"id":121,"type":"Feature","geometry":{"type":"Point","coordinates":[4.84994,52.351302]},"properties":{"Naam":"Hoofddorpplein","Modaliteit":"Tram","Lijn":2,"Lijn_select":"02","RADIUS":5,"Label":"2 - Hoofddorpplein"}},{"id":122,"type":"Feature","geometry":{"type":"Point","coordinates":[4.878568,52.358142]},"properties":{"Naam":"Van Baerlestraat","Modaliteit":"Tram","Lijn":"2 | 3 | 5 | 12","Lijn_select":"02|03|05|12","RADIUS":5,"Label":"2 | 3 | 5 | 12 - Van Baerlestraat"}},{"id":123,"type":"Feature","geometry":{"type":"Point","coordinates":[4.876776,52.342897]},"properties":{"Naam":"Prinses Irenestraat","Modaliteit":"Tram","Lijn":5,"Lijn_select":"05","RADIUS":5,"Label":"5 - Prinses Irenestraat"}},{"id":124,"type":"Feature","geometry":{"type":"Point","coordinates":[4.876907,52.34709]},"properties":{"Naam":"Stadionweg \/ Beethovenstraat","Modaliteit":"Tram","Lijn":"5 | 24","Lijn_select":"05|24","RADIUS":5,"Label":"5 | 24 - Stadionweg \/ Beethovenstraat"}},{"id":125,"type":"Feature","geometry":{"type":"Point","coordinates":[4.872533,52.346729]},"properties":{"Naam":"Minervaplein","Modaliteit":"Tram","Lijn":24,"Lijn_select":24,"RADIUS":5,"Label":"24 - Minervaplein"}},{"id":126,"type":"Feature","geometry":{"type":"Point","coordinates":[5.004306,52.350943]},"properties":{"Naam":"IJburg","Modaliteit":"Tram","Lijn":26,"Lijn_select":26,"RADIUS":5,"Label":"26 - IJburg"}},{"id":127,"type":"Feature","geometry":{"type":"Point","coordinates":[4.927082,52.357206]},"properties":{"Naam":"Oostpoort","Modaliteit":"Tram","Lijn":19,"Lijn_select":19,"RADIUS":5,"Label":"19 - Oostpoort"}},{"id":128,"type":"Feature","geometry":{"type":"Point","coordinates":[4.913026,52.37724]},"properties":{"Naam":"Muziekgebouw Bimhuis","Modaliteit":"Tram","Lijn":26,"Lijn_select":26,"RADIUS":5,"Label":"26 - Muziekgebouw Bimhuis"}},{"id":129,"type":"Feature","geometry":{"type":"Point","coordinates":[4.921583,52.376115]},"properties":{"Naam":"Kattenburgerstraat","Modaliteit":"Tram","Lijn":26,"Lijn_select":26,"RADIUS":5,"Label":"26 - Kattenburgerstraat"}},{"id":130,"type":"Feature","geometry":{"type":"Point","coordinates":[4.961515,52.372019]},"properties":{"Naam":"Zuiderzeeweg","Modaliteit":"Tram","Lijn":26,"Lijn_select":26,"RADIUS":5,"Label":"26 - Zuiderzeeweg"}},{"id":131,"type":"Feature","geometry":{"type":"Point","coordinates":[4.98044,52.362986]},"properties":{"Naam":"Steigereiland","Modaliteit":"Tram","Lijn":26,"Lijn_select":26,"RADIUS":5,"Label":"26 - Steigereiland"}},{"id":132,"type":"Feature","geometry":{"type":"Point","coordinates":[4.990814,52.357577]},"properties":{"Naam":"Vennepluimstraat","Modaliteit":"Tram","Lijn":26,"Lijn_select":26,"RADIUS":5,"Label":"26 - Vennepluimstraat"}},{"id":133,"type":"Feature","geometry":{"type":"Point","coordinates":[4.995227,52.35523]},"properties":{"Naam":"Diemerparklaan","Modaliteit":"Tram","Lijn":26,"Lijn_select":26,"RADIUS":5,"Label":"26 - Diemerparklaan"}},{"id":134,"type":"Feature","geometry":{"type":"Point","coordinates":[4.999645,52.352879]},"properties":{"Naam":"Lumi\u00e8restraat","Modaliteit":"Tram","Lijn":26,"Lijn_select":26,"RADIUS":5,"Label":"26 - Lumi\u00e8restraat"}},{"id":135,"type":"Feature","geometry":{"type":"Point","coordinates":[4.885244,52.38806]},"properties":{"Naam":"Zoutkeetsgracht","Modaliteit":"Tram","Lijn":3,"Lijn_select":"03","RADIUS":5,"Label":"3 - Zoutkeetsgracht"}},{"id":136,"type":"Feature","geometry":{"type":"Point","coordinates":[4.917045,52.358582]},"properties":{"Naam":"Beukenweg","Modaliteit":"Tram","Lijn":"1 | 3","Lijn_select":"01|03","RADIUS":5,"Label":"1 | 3 - Beukenweg"}},{"id":137,"type":"Feature","geometry":{"type":"Point","coordinates":[4.878628,52.378387]},"properties":{"Naam":"Marnixplein","Modaliteit":"Tram","Lijn":"3 | 5","Lijn_select":"03|05","RADIUS":5,"Label":"3 | 5 - Marnixplein"}},{"id":138,"type":"Feature","geometry":{"type":"Point","coordinates":[4.90491,52.346238]},"properties":{"Naam":"Victorieplein","Modaliteit":"Tram","Lijn":"4 | 12","Lijn_select":"04|12","RADIUS":5,"Label":"4 | 12 - Victorieplein"}},{"id":139,"type":"Feature","geometry":{"type":"Point","coordinates":[4.909563,52.357316]},"properties":{"Naam":"Wibautstraat","Modaliteit":"Tram","Lijn":3,"Lijn_select":"03","RADIUS":5,"Label":"3 - Wibautstraat"}},{"id":140,"type":"Feature","geometry":{"type":"Point","coordinates":[4.903214,52.351681]},"properties":{"Naam":"Lutmastraat","Modaliteit":"Tram","Lijn":4,"Lijn_select":"04","RADIUS":5,"Label":"4 - Lutmastraat"}},{"id":141,"type":"Feature","geometry":{"type":"Point","coordinates":[4.910983,52.347089]},"properties":{"Naam":"Amsteldijk","Modaliteit":"Tram","Lijn":12,"Lijn_select":12,"RADIUS":5,"Label":"12 - Amsteldijk"}},{"id":142,"type":"Feature","geometry":{"type":"Point","coordinates":[4.932961,52.360931]},"properties":{"Naam":"Muiderpoortstation","Modaliteit":"Tram","Lijn":"1 | 3","Lijn_select":"01|03","RADIUS":5,"Label":"1 | 3 - Muiderpoortstation"}},{"id":144,"type":"Feature","geometry":{"type":"Point","coordinates":[4.875346,52.378535]},"properties":{"Naam":"Fredrik Hendrikplanstoen","Modaliteit":"Tram","Lijn":3,"Lijn_select":"03","RADIUS":5,"Label":"3 - Fredrik Hendrikplanstoen"}},{"id":145,"type":"Feature","geometry":{"type":"Point","coordinates":[4.904198,52.349061]},"properties":{"Naam":"Amstelkade","Modaliteit":"Tram","Lijn":4,"Lijn_select":"04","RADIUS":5,"Label":"4 - Amstelkade"}},{"id":146,"type":"Feature","geometry":{"type":"Point","coordinates":[4.913607,52.358349]},"properties":{"Naam":"Camperstraat","Modaliteit":"Tram","Lijn":3,"Lijn_select":"03","RADIUS":5,"Label":"3 - Camperstraat"}},{"id":147,"type":"Feature","geometry":{"type":"Point","coordinates":[4.901248,52.354816]},"properties":{"Naam":"Van Woustraat \/ Ceintuurbaan","Modaliteit":"Tram","Lijn":"3 | 4","Lijn_select":"03|04","RADIUS":5,"Label":"3 | 4 - Van Woustraat \/ Ceintuurbaan"}},{"id":148,"type":"Feature","geometry":{"type":"Point","coordinates":[4.894586,52.353248]},"properties":{"Naam":"Tweede Van der Helststraat","Modaliteit":"Tram","Lijn":3,"Lijn_select":"03","RADIUS":5,"Label":"3 - Tweede Van der Helststraat"}},{"id":149,"type":"Feature","geometry":{"type":"Point","coordinates":[4.898301,52.363832]},"properties":{"Naam":"Keizersgracht","Modaliteit":"Tram","Lijn":4,"Lijn_select":"04","RADIUS":5,"Label":"4 - Keizersgracht"}},{"id":150,"type":"Feature","geometry":{"type":"Point","coordinates":[4.898988,52.362115]},"properties":{"Naam":"Prinsengracht","Modaliteit":"Tram","Lijn":4,"Lijn_select":"04","RADIUS":5,"Label":"4 - Prinsengracht"}},{"id":151,"type":"Feature","geometry":{"type":"Point","coordinates":[4.898761,52.359517]},"properties":{"Naam":"Frederiksplein \/ Stadhouderskade","Modaliteit":"Tram","Lijn":"1 | 4 | 7 | 19 | 24","Lijn_select":"01|04|07|19|24","RADIUS":5,"Label":"1 | 4 | 7 | 19 | 24 - Frederiksplein \/ Stadhouderskade"}},{"id":152,"type":"Feature","geometry":{"type":"Point","coordinates":[4.873149,52.340158]},"properties":{"Naam":"Station Zuid","Modaliteit":"Metro","Lijn":"5 | 6 | 50 | 51 | 52","Lijn_select":"05|06|50|51|52","RADIUS":7,"Label":"5 | 6 | 50 | 51 | 52 - Station Zuid"}},{"id":153,"type":"Feature","geometry":{"type":"Point","coordinates":[4.868842,52.331423]},"properties":{"Naam":"A.J. Ernststraat","Modaliteit":"Tram","Lijn":"5 | 6","Lijn_select":"05|06","RADIUS":5,"Label":"5 | 6 - A.J. Ernststraat"}},{"id":154,"type":"Feature","geometry":{"type":"Point","coordinates":[4.868701,52.338096]},"properties":{"Naam":"Parnassusweg","Modaliteit":"Tram","Lijn":"5 | 6","Lijn_select":"05|06","RADIUS":5,"Label":"5 | 6 - Parnassusweg"}},{"id":155,"type":"Feature","geometry":{"type":"Point","coordinates":[4.869154,52.321624]},"properties":{"Naam":"Uilenstede","Modaliteit":"Tram","Lijn":"5 | 6","Lijn_select":"05|06","RADIUS":5,"Label":"5 | 6 - Uilenstede"}},{"id":156,"type":"Feature","geometry":{"type":"Point","coordinates":[4.856897,52.343951]},"properties":{"Naam":"Olympisch Stadion","Modaliteit":"Tram","Lijn":24,"Lijn_select":24,"RADIUS":5,"Label":"24 - Olympisch Stadion"}},{"id":158,"type":"Feature","geometry":{"type":"Point","coordinates":[4.872233,52.312365]},"properties":{"Naam":"Biesbosch","Modaliteit":"Tram","Lijn":"5 | 6","Lijn_select":"05|06","RADIUS":5,"Label":"5 | 6 - Biesbosch"}},{"id":159,"type":"Feature","geometry":{"type":"Point","coordinates":[4.872513,52.308277]},"properties":{"Naam":"Oranjebaan","Modaliteit":"Tram","Lijn":"5 | 6","Lijn_select":"05|06","RADIUS":5,"Label":"5 | 6 - Oranjebaan"}},{"id":160,"type":"Feature","geometry":{"type":"Point","coordinates":[4.872513,52.308277]},"properties":{"Naam":"Onderuit","Modaliteit":"Tram","Lijn":"5 | 6","Lijn_select":"05|06","RADIUS":5,"Label":"5 | 6 - Onderuit"}},{"id":161,"type":"Feature","geometry":{"type":"Point","coordinates":[4.834378,52.357887]},"properties":{"Naam":"Station Lelylaan","Modaliteit":"Metro","Lijn":"1 | 17 | 50 | 51","Lijn_select":"01|17|50|51","RADIUS":7,"Label":"1 | 17 | 50 | 51 - Station Lelylaan"}},{"id":162,"type":"Feature","geometry":{"type":"Point","coordinates":[4.850835,52.395175]},"properties":{"Naam":"Isolatorweg","Modaliteit":"Metro","Lijn":"50 | 51","Lijn_select":"50|51","RADIUS":7,"Label":"50 | 51 - Isolatorweg"}},{"id":163,"type":"Feature","geometry":{"type":"Point","coordinates":[4.989232,52.29634]},"properties":{"Naam":"Gein","Modaliteit":"Metro","Lijn":"50 | 54","Lijn_select":"50|54","RADIUS":7,"Label":"50 | 54 - Gein"}},{"id":164,"type":"Feature","geometry":{"type":"Point","coordinates":[4.917807,52.331747]},"properties":{"Naam":"Overamstel","Modaliteit":"Metro","Lijn":"50 | 51","Lijn_select":"50|51","RADIUS":7,"Label":"50 | 51 - Overamstel"}},{"id":165,"type":"Feature","geometry":{"type":"Point","coordinates":[4.974169,52.295612]},"properties":{"Naam":"Reigersbos","Modaliteit":"Metro","Lijn":"50 | 54","Lijn_select":"50|54","RADIUS":7,"Label":"50 | 54 - Reigersbos"}},{"id":166,"type":"Feature","geometry":{"type":"Point","coordinates":[4.83889,52.388596]},"properties":{"Naam":"Station Sloterdijk","Modaliteit":"Metro","Lijn":"19 | 50 | 51","Lijn_select":"19|50|51","RADIUS":7,"Label":"19 | 50 | 51 - Station Sloterdijk"}},{"id":167,"type":"Feature","geometry":{"type":"Point","coordinates":[4.835503,52.37312]},"properties":{"Naam":"Jan van Galenstraat","Modaliteit":"Metro","Lijn":"13 | 50 | 51","Lijn_select":"13|50|51","RADIUS":7,"Label":"13 | 50 | 51 - Jan van Galenstraat"}},{"id":168,"type":"Feature","geometry":{"type":"Point","coordinates":[4.837885,52.37883]},"properties":{"Naam":"Burg. De Vlugtlaan","Modaliteit":"Metro","Lijn":"7 | 50 | 51","Lijn_select":"07|50|51","RADIUS":7,"Label":"7 | 50 | 51 - Burg. De Vlugtlaan"}},{"id":169,"type":"Feature","geometry":{"type":"Point","coordinates":[4.834486,52.346536]},"properties":{"Naam":"Henk Sneevlietweg","Modaliteit":"Metro","Lijn":"50 | 51","Lijn_select":"50|51","RADIUS":7,"Label":"50 | 51 - Henk Sneevlietweg"}},{"id":170,"type":"Feature","geometry":{"type":"Point","coordinates":[4.834339,52.351498]},"properties":{"Naam":"Heemstedestraat","Modaliteit":"Metro","Lijn":"2 | 50 | 51","Lijn_select":"02|50|51","RADIUS":7,"Label":"2 | 50 | 51 - Heemstedestraat"}},{"id":171,"type":"Feature","geometry":{"type":"Point","coordinates":[4.833954,52.364859]},"properties":{"Naam":"Postjesweg","Modaliteit":"Metro","Lijn":"50 | 51","Lijn_select":"50|51","RADIUS":7,"Label":"50 | 51 - Postjesweg"}},{"id":172,"type":"Feature","geometry":{"type":"Point","coordinates":[4.857276,52.338387]},"properties":{"Naam":"Amstelveenseweg","Modaliteit":"Metro","Lijn":"24 | 50 | 51","Lijn_select":"24|50|51","RADIUS":7,"Label":"24 | 50 | 51 - Amstelveenseweg"}},{"id":173,"type":"Feature","geometry":{"type":"Point","coordinates":[4.890729,52.336999]},"properties":{"Naam":"Station RAI","Modaliteit":"Metro","Lijn":"4 | 50 | 51","Lijn_select":"04|50|51","RADIUS":7,"Label":"4 | 50 | 51 - Station RAI"}},{"id":174,"type":"Feature","geometry":{"type":"Point","coordinates":[4.941473,52.318417]},"properties":{"Naam":"Strandvliet","Modaliteit":"Metro","Lijn":"50 | 54","Lijn_select":"50|54","RADIUS":7,"Label":"50 | 54 - Strandvliet"}},{"id":175,"type":"Feature","geometry":{"type":"Point","coordinates":[4.947196,52.312125]},"properties":{"Naam":"Station Bijlmer ArenA","Modaliteit":"Metro","Lijn":"50 | 54","Lijn_select":"50|54","RADIUS":7,"Label":"50 | 54 - Station Bijlmer ArenA"}},{"id":176,"type":"Feature","geometry":{"type":"Point","coordinates":[4.952107,52.306793]},"properties":{"Naam":"Bullewijk","Modaliteit":"Metro","Lijn":"50 | 54","Lijn_select":"50|54","RADIUS":7,"Label":"50 | 54 - Bullewijk"}},{"id":177,"type":"Feature","geometry":{"type":"Point","coordinates":[4.959985,52.298175]},"properties":{"Naam":"Station Holendrecht","Modaliteit":"Metro","Lijn":"50 | 54","Lijn_select":"50|54","RADIUS":7,"Label":"50 | 54 - Station Holendrecht"}},{"id":178,"type":"Feature","geometry":{"type":"Point","coordinates":[4.936492,52.3236]},"properties":{"Naam":"Station Duivendrecht","Modaliteit":"Metro","Lijn":"50 | 54","Lijn_select":"50|54","RADIUS":7,"Label":"50 | 54 - Station Duivendrecht"}},{"id":179,"type":"Feature","geometry":{"type":"Point","coordinates":[4.8683894,52.3349048]},"properties":{"Naam":"De Boelelaan\/VU","Modaliteit":"Tram","Lijn":"5 | 6 | 24","Lijn_select":"05|06|24","RADIUS":5,"Label":"5 | 6 | 24 - De Boelelaan\/VU"}},{"id":180,"type":"Feature","geometry":{"type":"Point","coordinates":[4.868971,52.325398]},"properties":{"Naam":"Van Boshuizenstraat","Modaliteit":"Tram","Lijn":"5 | 6","Lijn_select":"05|06","RADIUS":5,"Label":"5 | 6 - Van Boshuizenstraat"}},{"id":181,"type":"Feature","geometry":{"type":"Point","coordinates":[4.920971,52.340035]},"properties":{"Naam":"Spaklerweg","Modaliteit":"Metro","Lijn":"51 | 53 | 54","Lijn_select":"51|53|54","RADIUS":7,"Label":"51 | 53 | 54 - Spaklerweg"}},{"id":182,"type":"Feature","geometry":{"type":"Point","coordinates":[4.899778,52.37802]},"properties":{"Naam":"Centraal Station","Modaliteit":"Metro","Lijn":"2 | 4 | 11 | 12 | 13 | 14 | 17 | 26 | 51 | 52 | 53 | 54","Lijn_select":"02|04|11|12|13|14|17|26|51|52|53|54","RADIUS":7,"Label":"2 | 4 | 11 | 12 | 13 | 14 | 17 | 26 | 51 | 52 | 53 | 54 - Centraal Station"}},{"id":183,"type":"Feature","geometry":{"type":"Point","coordinates":[4.902406,52.367342]},"properties":{"Naam":"Waterlooplein","Modaliteit":"Metro","Lijn":"14 | 51 | 53 | 54","Lijn_select":"14|51|53|54","RADIUS":7,"Label":"14 | 51 | 53 | 54 - Waterlooplein"}},{"id":184,"type":"Feature","geometry":{"type":"Point","coordinates":[4.907983,52.361166]},"properties":{"Naam":"Weesperplein","Modaliteit":"Metro","Lijn":"1 | 7 | 19 | 51 | 53 | 54","Lijn_select":"01|07|19|51|53|54","RADIUS":7,"Label":"1 | 7 | 19 | 51 | 53 | 54 - Weesperplein"}},{"id":185,"type":"Feature","geometry":{"type":"Point","coordinates":[4.912128,52.354326]},"properties":{"Naam":"Wibautstraat","Modaliteit":"Metro","Lijn":"51 | 53 | 54","Lijn_select":"51|53|54","RADIUS":7,"Label":"51 | 53 | 54 - Wibautstraat"}},{"id":186,"type":"Feature","geometry":{"type":"Point","coordinates":[4.858529,52.345265]},"properties":{"Naam":"Olympiaweg","Modaliteit":"Tram","Lijn":24,"Lijn_select":24,"RADIUS":5,"Label":"24 - Olympiaweg"}},{"id":187,"type":"Feature","geometry":{"type":"Point","coordinates":[4.866262,52.346333]},"properties":{"Naam":"Olympiaplein","Modaliteit":"Tram","Lijn":24,"Lijn_select":24,"RADIUS":5,"Label":"24 - Olympiaplein"}},{"id":188,"type":"Feature","geometry":{"type":"Point","coordinates":[4.877281,52.349092]},"properties":{"Naam":"Gerrit van der Veenstraat","Modaliteit":"Tram","Lijn":"5 | 24","Lijn_select":"05|24","RADIUS":5,"Label":"5 | 24 - Gerrit van der Veenstraat"}},{"id":189,"type":"Feature","geometry":{"type":"Point","coordinates":[4.901306,52.371913]},"properties":{"Naam":"Nieuwmarkt","Modaliteit":"Metro","Lijn":"51 | 53 | 54","Lijn_select":"51|53|54","RADIUS":7,"Label":"51 | 53 | 54 - Nieuwmarkt"}},{"id":190,"type":"Feature","geometry":{"type":"Point","coordinates":[4.918302,52.346656]},"properties":{"Naam":"Amstelstation","Modaliteit":"Metro","Lijn":"12 | 51 | 53 | 54","Lijn_select":"12|51|53|54","RADIUS":7,"Label":"12 | 51 | 53 | 54 - Amstelstation"}},{"id":191,"type":"Feature","geometry":{"type":"Point","coordinates":[4.930305,52.329671]},"properties":{"Naam":"Van der Madeweg","Modaliteit":"Metro","Lijn":"50 | 53 | 54","Lijn_select":"50|53|54","RADIUS":7,"Label":"50 | 53 | 54 - Van der Madeweg"}},{"id":192,"type":"Feature","geometry":{"type":"Point","coordinates":[4.966764,52.328617]},"properties":{"Naam":"Verrijn Stuartweg","Modaliteit":"Metro","Lijn":53,"Lijn_select":53,"RADIUS":7,"Label":"53 - Verrijn Stuartweg"}},{"id":193,"type":"Feature","geometry":{"type":"Point","coordinates":[4.973049,52.323624]},"properties":{"Naam":"Station Ganzenhoef","Modaliteit":"Metro","Lijn":53,"Lijn_select":53,"RADIUS":7,"Label":"53 - Station Ganzenhoef"}},{"id":194,"type":"Feature","geometry":{"type":"Point","coordinates":[4.979459,52.316611]},"properties":{"Naam":"Kraaiennest station","Modaliteit":"Metro","Lijn":53,"Lijn_select":53,"RADIUS":7,"Label":"53 - Kraaiennest station"}},{"id":195,"type":"Feature","geometry":{"type":"Point","coordinates":[4.984554,52.311028]},"properties":{"Naam":"Gaasperplas","Modaliteit":"Metro","Lijn":53,"Lijn_select":53,"RADIUS":7,"Label":"53 - Gaasperplas"}},{"id":196,"type":"Feature","geometry":{"type":"Point","coordinates":[4.946234,52.32673]},"properties":{"Naam":"Venserpolder","Modaliteit":"Metro","Lijn":53,"Lijn_select":53,"RADIUS":7,"Label":"53 - Venserpolder"}},{"id":197,"type":"Feature","geometry":{"type":"Point","coordinates":[4.859681,52.364718]},"properties":{"Naam":"Witte de Withstraat","Modaliteit":"Tram","Lijn":"7 | 17","Lijn_select":"07|17","RADIUS":5,"Label":"7 | 17 - Witte de Withstraat"}},{"id":198,"type":"Feature","geometry":{"type":"Point","coordinates":[4.852487,52.367167]},"properties":{"Naam":"Willem Schoutenstraat","Modaliteit":"Tram","Lijn":7,"Lijn_select":"07","RADIUS":5,"Label":"7 - Willem Schoutenstraat"}},{"id":199,"type":"Feature","geometry":{"type":"Point","coordinates":[4.859972,52.371492]},"properties":{"Naam":"Admiraal De Ruijterweg","Modaliteit":"Tram","Lijn":"13 | 19","Lijn_select":"13|19","RADIUS":5,"Label":"13 | 19 - Admiraal De Ruijterweg"}},{"id":200,"type":"Feature","geometry":{"type":"Point","coordinates":[4.862706,52.364804]},"properties":{"Naam":"J.P.Heijestraat","Modaliteit":"Tram","Lijn":"7 | 17","Lijn_select":"07|17","RADIUS":5,"Label":"7 | 17 - J.P.Heijestraat"}},{"id":201,"type":"Feature","geometry":{"type":"Point","coordinates":[4.873149,52.340158]},"properties":{"Naam":"Station Zuid","Modaliteit":"Tram","Lijn":"5 | 6 | 50 | 51 | 52","Lijn_select":"05|06|50|51|52","RADIUS":5,"Label":"5 | 6 | 50 | 51 | 52 - Station Zuid"}},{"id":202,"type":"Feature","geometry":{"type":"Point","coordinates":[4.834378,52.357887]},"properties":{"Naam":"Station Lelylaan","Modaliteit":"Tram","Lijn":"1 | 17 | 50 | 51","Lijn_select":"01|17|50|51","RADIUS":5,"Label":"1 | 17 | 50 | 51 - Station Lelylaan"}},{"id":203,"type":"Feature","geometry":{"type":"Point","coordinates":[4.83889,52.388596]},"properties":{"Naam":"Station Sloterdijjk","Modaliteit":"Tram","Lijn":"19 | 50 | 51","Lijn_select":"19|50|51","RADIUS":5,"Label":"19 | 50 | 51 - Station Sloterdijjk"}},{"id":204,"type":"Feature","geometry":{"type":"Point","coordinates":[4.835503,52.37312]},"properties":{"Naam":"Jan van Galenstraat","Modaliteit":"Tram","Lijn":"13 | 50 | 51","Lijn_select":"13|50|51","RADIUS":5,"Label":"13 | 50 | 51 - Jan van Galenstraat"}},{"id":205,"type":"Feature","geometry":{"type":"Point","coordinates":[4.837885,52.37883]},"properties":{"Naam":"Burg. De Vlugtlaan","Modaliteit":"Tram","Lijn":"7 | 50 | 51","Lijn_select":"07|50|51","RADIUS":5,"Label":"7 | 50 | 51 - Burg. De Vlugtlaan"}},{"id":206,"type":"Feature","geometry":{"type":"Point","coordinates":[4.834339,52.351498]},"properties":{"Naam":"Heemstedestraat","Modaliteit":"Tram","Lijn":"2 | 50 | 51","Lijn_select":"02|50|51","RADIUS":5,"Label":"2 | 50 | 51 - Heemstedestraat"}},{"id":207,"type":"Feature","geometry":{"type":"Point","coordinates":[4.857276,52.338387]},"properties":{"Naam":"Amstelveenseweg","Modaliteit":"Tram","Lijn":"24 | 50 | 51","Lijn_select":"24|50|51","RADIUS":5,"Label":"24 | 50 | 51 - Amstelveenseweg"}},{"id":208,"type":"Feature","geometry":{"type":"Point","coordinates":[4.890729,52.336999]},"properties":{"Naam":"Station RAI","Modaliteit":"Tram","Lijn":"4 | 50 | 51","Lijn_select":"04|50|51","RADIUS":5,"Label":"4 | 50 | 51 - Station RAI"}},{"id":209,"type":"Feature","geometry":{"type":"Point","coordinates":[4.899778,52.37802]},"properties":{"Naam":"Centraal Station","Modaliteit":"Tram","Lijn":"2 | 4 | 11 | 12 | 13 | 14 | 17 | 26 | 51 | 52 | 53 | 54","Lijn_select":"02|04|11|12|13|14|17|26|51|52|53|54","RADIUS":5,"Label":"2 | 4 | 11 | 12 | 13 | 14 | 17 | 26 | 51 | 52 | 53 | 54 - Centraal Station"}},{"id":210,"type":"Feature","geometry":{"type":"Point","coordinates":[4.902406,52.367342]},"properties":{"Naam":"Waterlooplein","Modaliteit":"Tram","Lijn":"14 | 51 | 53 | 54","Lijn_select":"14|51|53|54","RADIUS":5,"Label":"14 | 51 | 53 | 54 - Waterlooplein"}},{"id":211,"type":"Feature","geometry":{"type":"Point","coordinates":[4.907983,52.361166]},"properties":{"Naam":"Weesperplein","Modaliteit":"Tram","Lijn":"1 | 7 | 19 | 51 | 53 | 54","Lijn_select":"01|07|19|51|53|54","RADIUS":5,"Label":"1 | 7 | 19 | 51 | 53 | 54 - Weesperplein"}},{"id":212,"type":"Feature","geometry":{"type":"Point","coordinates":[4.918302,52.346656]},"properties":{"Naam":"Amstelstation","Modaliteit":"Tram","Lijn":"12 | 51 | 53 | 54","Lijn_select":"12|51|53|54","RADIUS":5,"Label":"12 | 51 | 53 | 54 - Amstelstation"}},{"id":213,"type":"Feature","geometry":{"type":"Point","coordinates":[4.956452,52.330263]},"properties":{"Naam":"Station Diemen-Zuid","Modaliteit":"Metro","Lijn":53,"Lijn_select":53,"RADIUS":7,"Label":"53 - Station Diemen-Zuid"}},{"id":214,"type":"Feature","geometry":{"type":"Point","coordinates":[4.968966,52.368932]},"properties":{"Naam":"Bob Haarmslaan","Modaliteit":"Tram","Lijn":26,"Lijn_select":26,"RADIUS":5,"Label":"26 - Bob Haarmslaan"}},{"id":215,"type":"Feature","geometry":{"type":"Point","coordinates":[4.884111,52.374028]},"properties":{"Naam":"Westermarkt","Modaliteit":"Tram","Lijn":"13 | 17","Lijn_select":"13|17","RADIUS":5,"Label":"13 | 17 - Westermarkt"}},{"id":217,"type":"Feature","geometry":{"type":"Point","coordinates":[4.891992,52.340211]},"properties":{"Naam":"Europaplein","Modaliteit":"Metro","Lijn":"4 | 52","Lijn_select":"04|52","RADIUS":7,"Label":"4 | 52 - Europaplein"}},{"id":218,"type":"Feature","geometry":{"type":"Point","coordinates":[4.918657,52.388895]},"properties":{"Naam":"Noorderpark","Modaliteit":"Metro","Lijn":52,"Lijn_select":52,"RADIUS":7,"Label":"52 - Noorderpark"}},{"id":219,"type":"Feature","geometry":{"type":"Point","coordinates":[4.932234,52.40187]},"properties":{"Naam":"Noord","Modaliteit":"Metro","Lijn":52,"Lijn_select":52,"RADIUS":7,"Label":"52 - Noord"}},{"id":220,"type":"Feature","geometry":{"type":"Point","coordinates":[4.892383,52.369793]},"properties":{"Naam":"Rokin","Modaliteit":"Metro","Lijn":"4 | 14 | 52","Lijn_select":"04|14|52","RADIUS":7,"Label":"4 | 14 | 52 - Rokin"}},{"id":221,"type":"Feature","geometry":{"type":"Point","coordinates":[4.890948,52.359625]},"properties":{"Naam":"Vijzelgracht","Modaliteit":"Metro","Lijn":"1 | 7 | 19 | 24 | 52","Lijn_select":"01|07|19|24|52","RADIUS":7,"Label":"1 | 7 | 19 | 24 | 52 - Vijzelgracht"}},{"id":222,"type":"Feature","geometry":{"type":"Point","coordinates":[4.891112,52.352783]},"properties":{"Naam":"De Pijp","Modaliteit":"Metro","Lijn":"3 | 12 | 24 | 52","Lijn_select":"03|12|24|52","RADIUS":7,"Label":"3 | 12 | 24 | 52 - De Pijp"}},{"id":223,"type":"Feature","geometry":{"type":"Point","coordinates":[4.8835434,52.3598106]},"properties":{"Naam":"Rijksmuseum","Modaliteit":"Tram","Lijn":"2 | 5 | 12","Lijn_select":"02|05|12","RADIUS":5,"Label":"2 | 5 | 12 - Rijksmuseum"}},{"id":224,"type":"Feature","geometry":{"type":"Point","coordinates":[4.8727744,52.3746776]},"properties":{"Naam":"Hugo de Grootplein","Modaliteit":"Tram","Lijn":3,"Lijn_select":"03","RADIUS":5,"Label":"3 - Hugo de Grootplein"}},{"id":227,"type":"Feature","geometry":{"type":"Point","coordinates":[4.8893145,52.3361459]},"properties":{"Naam":"Drenthepark","Modaliteit":"Tram","Lijn":4,"Lijn_select":"04","RADIUS":5,"Label":"4 - Drenthepark"}},{"id":228,"type":"Feature","geometry":{"type":"Point","coordinates":[4.8764556,52.3743328]},"properties":{"Naam":"Bloemgracht","Modaliteit":"Tram","Lijn":5,"Lijn_select":"05","RADIUS":5,"Label":"5 - Bloemgracht"}},{"id":229,"type":"Feature","geometry":{"type":"Point","coordinates":[4.8486187,52.3732333]},"properties":{"Naam":"Jan van Galenstraat","Modaliteit":"Tram","Lijn":7,"Lijn_select":"07","RADIUS":5,"Label":"7 - Jan van Galenstraat"}},{"id":230,"type":"Feature","geometry":{"type":"Point","coordinates":[4.851075,52.3586008]},"properties":{"Naam":"Cura\u00e7aostraat","Modaliteit":"Tram","Lijn":11,"Lijn_select":11,"RADIUS":5,"Label":"11 - Cura\u00e7aostraat"}},{"id":231,"type":"Feature","geometry":{"type":"Point","coordinates":[4.8574601,52.3781232]},"properties":{"Naam":"Karel Doormanstraat \/ De Rijpstraat","Modaliteit":"Tram","Lijn":19,"Lijn_select":19,"RADIUS":5,"Label":"19 - Karel Doormanstraat \/ De Rijpstraat"}},{"id":232,"type":"Feature","geometry":{"type":"Point","coordinates":[4.8598341,52.3351714]},"properties":{"Naam":"VUmc","Modaliteit":"Tram","Lijn":24,"Lijn_select":24,"RADIUS":5,"Label":"24 - VUmc"}}]}